[
  {
    "Name": "Morris Park Bake Shop",
    "Categories": "Italian & Polynesian & Coffee",
    "Stars": 4,
    "Image": "https://github.com/Jawaria-Jabbar/restaurantapp/blob/main/Morris_Park.jpg?raw=true",
    "Latitude": -8.783195,
    "Longitude": 34.508523
  },
  {
    "Name": "Dj Reynolds Pub And Restaurant",
    "Categories": "Pancakes, Californian, African",
    "Stars": 2,
    "Image": "https://github.com/Jawaria-Jabbar/restaurantapp/blob/main/DJ.jpg?raw=true",
    "Latitude": 12.769013,
    "Longitude": -85.602364
  },
  {
    "Name": "Wendy'S",
    "Categories": "Italian & Polynesian & Coffee",
    "Stars": 4,
    "Image": "https://github.com/Jawaria-Jabbar/restaurantapp/blob/main/wendy.jpg?raw=true",
    "Latitude": 1.957709,
    "Longitude": 37.297204
  },
  {
    "Name": "Riviera Caterer",
    "Location": "Central & South America",
    "Image": "https://github.com/Jawaria-Jabbar/restaurantapp/blob/main/river.jpg?raw=true",
    "Latitude":  13.8938,
    "Longitude": 29.9560
  },
  {
    "Name": "Sangam Manchester City Centre",
    "Categories": " Indian, Healthy, Vegetarian Friendly",
    "Stars": 4,
    "Image": "https://github.com/Jawaria-Jabbar/restaurantapp/blob/main/sangam.jpg?raw=true",
    "Latitude": -14.235004,
    "Longitude": -51.92528
  },
  {
    "Name": "Papa Johns Pizza",
    "Categories": "Pizza Restaurant",
    "Stars": 4,
    "Image": "https://github.com/Jawaria-Jabbar/restaurantapp/blob/main/papa.jpg?raw=true",
    "Latitude": -8.783195,
    "Longitude": -55.491477
  },
  {
    "Name": "Hawksmoor",
    "Categories": "Italian & Polynesian & Coffee",
    "Stars": 4,
    "Image": "https://github.com/Jawaria-Jabbar/restaurantapp/blob/main/hawks.jpg?raw=true",
    "Latitude": 36.204824,
    "Longitude": 138.252924
  },
  {
    "Name": "20 Stories",
    "Categories": "Italian & Polynesian & Coffee",
    "Stars": 4,
    "Image": "https://github.com/Jawaria-Jabbar/restaurantapp/blob/main/hawks.jpg?raw=true",
    "Latitude": 7.369722,
    "Longitude": 12.354722
  },
  {
    "Name": "Mowgli Corn Exchange",
    "Categories": "Italian & Polynesian & Coffee",
    "Stars": 4,
    "Image": "https://github.com/Jawaria-Jabbar/restaurantapp/blob/main/hawks.jpg?raw=true",
    "Latitude": 0.961883,
    "Longitude": 114.55485
  },
  {
    "Name": "Piccolino",
    "Categories": "Italian & Polynesian & Coffee",
    "Stars": 4,
    "Image": "https://github.com/Jawaria-Jabbar/restaurantapp/blob/main/hawks.jpg?raw=true",
    "Latitude": 47.606209,
    "Longitude": -122.332071
  },
  {
    "Name": "Don Giovanni",
    "Categories": "Italian & Polynesian & Coffee",
    "Stars": 5,
    "Image": "https://github.com/Jawaria-Jabbar/restaurantapp/blob/main/hawks.jpg?raw=true",
    "Latitude": 33.448377,
    "Longitude": -112.074037
  },
  {
    "Name": "Australasia",
    "Categories": "Italian & Polynesian & Coffee",
    "Stars": 5,
    "Image": "https://github.com/Jawaria-Jabbar/restaurantapp/blob/main/hawks.jpg?raw=true",
    "Latitude": 16.111648,
    "Longitude": 108.262122
  },
  {
    "Name": "James Martin Restaurant",
    "Categories": "Italian & Polynesian & Coffee",
    "Stars": 3,
    "Image": "https://github.com/Jawaria-Jabbar/restaurantapp/blob/main/hawks.jpg?raw=true",
    "Latitude": 47.608013,
    "Longitude": -122.335167
  }
]
